,date,sigla_state,city,place_type,confirmed,deaths,order_for_place,is_last,population,codigo_ibge,confirmed_per_100k_inhabitants,death_rate,latitude,longitude,codigo_uf,state
3,2020-04-02,PA,Abaetetuba,city,1.0,0.0,3.0,True,157698.0,1500107,0.63412,0.0,-1.72183,-48.8788,15.0,Pará
27,2020-04-02,AC,Acrelândia,city,8.0,0.0,5.0,True,15256.0,1200013,52.43838,0.0,-9.82581,-66.8972,12.0,Acre
40,2020-04-01,ES,Afonso Cláudio,city,1.0,0.0,1.0,True,30586.0,3200102,3.26947,0.0,-20.0778,-41.1261,32.0,Espírito Santo
66,2020-04-02,BA,Alagoinhas,city,3.0,0.0,8.0,True,151596.0,2900702,1.9789400000000001,0.0,-12.1335,-38.4208,29.0,Bahia
77,2020-04-02,MS,Alcinópolis,city,1.0,0.0,3.0,True,5343.0,5000252,18.716079999999998,0.0,-18.3255,-53.7042,50.0,Mato Grosso do Sul
86,2020-04-02,RS,Alegrete,city,1.0,0.0,2.0,True,73589.0,4300406,1.3589,0.0,-29.7902,-55.7949,43.0,Rio Grande do Sul
93,2020-04-02,MG,Alfenas,city,1.0,0.0,3.0,True,79996.0,3101607,1.25006,0.0,-21.4256,-45.9477,31.0,Minas Gerais
102,2020-04-02,PE,Aliança,city,1.0,0.0,2.0,True,38386.0,2600708,2.60512,0.0,-7.60398,-35.2227,26.0,Pernambuco
110,2020-04-02,PR,Almirante Tamandaré,city,3.0,0.0,4.0,True,118623.0,4100400,2.52902,0.0,-25.3188,-49.3037,41.0,Paraná
152,2020-04-01,ES,Alto Rio Novo,city,0.0,0.0,2.0,True,7836.0,3200359,0.0,0.0,-19.0618,-41.0209,32.0,Espírito Santo
165,2020-04-02,RS,Alvorada,city,3.0,0.0,15.0,True,210305.0,4300604,1.4265,0.0,-29.9914,-51.0809,43.0,Rio Grande do Sul
198,2020-04-01,SP,Americana,city,2.0,0.0,2.0,True,239597.0,3501608,0.83473,0.0,-22.7374,-47.3331,35.0,São Paulo
220,2020-04-02,PA,Ananindeua,city,8.0,0.0,9.0,True,530598.0,1500800,1.50773,0.0,-1.36391,-48.3743,15.0,Pará
251,2020-04-01,RJ,Angra dos Reis,city,1.0,0.0,3.0,True,203785.0,3300100,0.49071000000000004,0.0,-23.0011,-44.3196,33.0,Rio de Janeiro
262,2020-04-02,AM,Anori,city,1.0,0.0,5.0,True,21010.0,1300102,4.75964,0.0,-3.74603,-61.6575,13.0,Amazonas
267,2020-04-02,RS,Anta Gorda,city,2.0,0.0,10.0,True,5981.0,4300703,33.43922,0.0,-28.9698,-52.0102,43.0,Rio Grande do Sul
283,2020-04-02,SC,Antônio Carlos,city,8.0,1.0,7.0,True,8513.0,4201208,93.97391999999999,0.125,-27.5191,-48.76600000000001,42.0,Santa Catarina
297,2020-04-02,GO,Anápolis,city,4.0,0.0,17.0,True,386923.0,5201108,1.0338,0.0,-16.3281,-48.953,52.0,Goiás
318,2020-04-02,GO,Aparecida de Goiânia,city,2.0,0.0,15.0,True,578179.0,5201405,0.34591,0.0,-16.8198,-49.2469,52.0,Goiás
342,2020-04-01,RN,Apodi,city,1.0,0.0,3.0,True,35845.0,2401008,2.78979,0.0,-5.6534900000000015,-37.7946,24.0,Rio Grande do Norte
353,2020-04-01,CE,Aquiraz,city,14.0,0.0,16.0,True,80271.0,2301000,17.440920000000002,0.0,-3.89929,-38.3896,23.0,Ceará
370,2020-04-02,SE,Aracaju,city,20.0,2.0,12.0,True,657013.0,2800308,3.04408,0.1,-10.9091,-37.0677,28.0,Sergipe
387,2020-04-01,ES,Aracruz,city,1.0,0.0,1.0,True,101220.0,3200607,0.98795,0.0,-19.82,-40.2764,32.0,Espírito Santo
397,2020-04-02,MG,Araguari,city,1.0,0.0,2.0,True,117267.0,3103504,0.85275,0.0,-18.6456,-48.1934,31.0,Minas Gerais
401,2020-04-02,TO,Araguaína,city,3.0,0.0,7.0,True,180470.0,1702109,1.6623299999999999,0.0,-7.19238,-48.2044,17.0,Tocantins
420,2020-04-02,PR,Arapongas,city,2.0,0.0,2.0,True,123027.0,4101507,1.62566,0.0,-23.4153,-51.4259,41.0,Paraná
444,2020-04-02,PR,Araucária,city,1.0,0.0,2.0,True,143843.0,4101804,0.6952,0.0,-25.5859,-49.4047,41.0,Paraná
450,2020-04-01,SP,Araçatuba,city,2.0,0.0,2.0,True,197016.0,3502804,1.01515,0.0,-21.2076,-50.4401,35.0,São Paulo
460,2020-04-02,MG,Arcos,city,1.0,0.0,1.0,True,40092.0,3104205,2.4942599999999997,0.0,-20.2863,-45.5373,31.0,Minas Gerais
488,2020-04-01,RJ,Arraial do Cabo,city,1.0,1.0,1.0,True,30349.0,3300258,3.295,1.0,-22.9774,-42.0267,33.0,Rio de Janeiro
499,2020-04-01,SP,Arujá,city,2.0,0.0,5.0,True,89824.0,3503901,2.22658,0.0,-23.3965,-46.32,35.0,São Paulo
513,2020-04-02,PR,Assis Chateaubriand,city,1.0,0.0,2.0,True,33362.0,4102000,2.99742,0.0,-24.4168,-53.5213,41.0,Paraná
545,2020-04-02,MA,Açailândia,city,1.0,0.0,2.0,True,112445.0,2100055,0.8893200000000001,0.0,-4.94714,-47.5004,21.0,Maranhão
547,2020-04-01,RN,Açu,city,1.0,0.0,4.0,True,58017.0,2400208,1.72363,0.0,-5.58362,-36.914,24.0,Rio Grande do Norte
560,2020-04-02,RS,Bagé,city,16.0,0.0,15.0,True,121143.0,4301602,13.207529999999998,0.0,-31.3297,-54.0999,43.0,Rio Grande do Sul
584,2020-04-02,SC,Balneário Arroio do Silva,city,1.0,0.0,9.0,True,13071.0,4201950,7.650519999999999,0.0,-28.9806,-49.4237,42.0,Santa Catarina
594,2020-04-02,SC,Balneário Camboriú,city,10.0,0.0,16.0,True,142295.0,4202008,7.02765,0.0,-26.9926,-48.6352,42.0,Santa Catarina
630,2020-04-02,MG,Barbacena,city,1.0,0.0,1.0,True,137313.0,3105608,0.72826,0.0,-21.2214,-43.7703,31.0,Minas Gerais
634,2020-04-02,PA,Barcarena,city,1.0,0.0,2.0,True,124680.0,1501303,0.80205,0.0,-1.51187,-48.6195,15.0,Pará
639,2020-04-02,BA,Barra,city,1.0,0.0,3.0,True,53578.0,2902708,1.86644,0.0,-11.0859,-43.1459,29.0,Bahia
647,2020-04-01,RJ,Barra Mansa,city,2.0,0.0,20.0,True,184412.0,3300407,1.08453,0.0,-22.5481,-44.1752,33.0,Rio de Janeiro
689,2020-04-02,BA,Barra do Rocha,city,1.0,0.0,2.0,True,5714.0,2903102,17.50088,0.0,-14.2,-39.5991,29.0,Bahia
697,2020-04-02,BA,Barreiras,city,1.0,0.0,12.0,True,155439.0,2903201,0.6433399999999999,0.0,-12.1439,-44.9968,29.0,Bahia
725,2020-04-01,SP,Barueri,city,21.0,0.0,9.0,True,274182.0,3505708,7.65915,0.0,-23.5057,-46.879,35.0,São Paulo
747,2020-04-02,MS,Batayporã,city,4.0,1.0,7.0,True,11329.0,5002001,35.30762,0.25,-22.2944,-53.2705,50.0,Mato Grosso do Sul
755,2020-04-01,SP,Bauru,city,2.0,0.0,2.0,True,376818.0,3506003,0.53076,0.0,-22.3246,-49.0871,35.0,São Paulo
761,2020-04-01,CE,Beberibe,city,1.0,0.0,3.0,True,53573.0,2302206,1.8666099999999999,0.0,-4.17741,-38.1271,23.0,Ceará
773,2020-04-01,RJ,Belford Roxo,city,3.0,0.0,7.0,True,510906.0,3300456,0.58719,0.0,-22.764,-43.3992,33.0,Rio de Janeiro
781,2020-04-02,BA,Belmonte,city,1.0,0.0,1.0,True,23328.0,2903409,4.28669,0.0,-15.8608,-38.8758,29.0,Bahia
784,2020-04-02,MG,Belo Horizonte,city,210.0,3.0,17.0,True,2512070.0,3106200,8.359639999999999,0.0143,-19.9102,-43.9266,31.0,Minas Gerais
801,2020-04-02,PE,Belo Jardim,city,1.0,0.0,15.0,True,76439.0,2601706,1.30823,0.0,-8.3313,-36.4258,26.0,Pernambuco
821,2020-04-02,PA,Belém,city,25.0,0.0,16.0,True,1492745.0,1501402,1.67477,0.0,-1.4554,-48.4898,15.0,Pará
850,2020-04-02,RS,Bento Gonçalves,city,4.0,0.0,14.0,True,120454.0,4302105,3.3207699999999996,0.0,-29.1662,-51.5165,43.0,Rio Grande do Sul
876,2020-04-02,MG,Betim,city,5.0,0.0,11.0,True,439340.0,3106705,1.1380700000000001,0.0,-19.9668,-44.2008,31.0,Minas Gerais
892,2020-04-02,SC,Biguaçu,city,1.0,0.0,1.0,True,68481.0,4202305,1.4602600000000001,0.0,-27.496,-48.6598,42.0,Santa Catarina
898,2020-04-02,SC,Blumenau,city,22.0,0.0,12.0,True,357199.0,4202404,6.1590300000000004,0.0,-26.9155,-49.0709,42.0,Santa Catarina
910,2020-04-02,MG,Boa Esperança,city,1.0,0.0,8.0,True,40127.0,3107109,2.49209,0.0,-21.0927,-45.5612,31.0,Minas Gerais
927,2020-04-02,RR,Boa Vista,city,24.0,0.0,13.0,True,399213.0,1400100,6.011830000000001,0.0,2.82384,-60.6753,14.0,Roraima
951,2020-04-02,AM,Boca do Acre,city,1.0,0.0,8.0,True,34308.0,1300706,2.91477,0.0,-8.74232,-67.3919,13.0,Amazonas
971,2020-04-02,MG,Bom Despacho,city,1.0,0.0,11.0,True,50605.0,3107406,1.9760900000000001,0.0,-19.7386,-45.2622,31.0,Minas Gerais
1021,2020-04-02,RR,Bonfim,city,3.0,0.0,10.0,True,12409.0,1400159,24.176,0.0,3.36161,-59.8333,14.0,Roraima
1076,2020-04-02,DF,Brasília,city,400.0,5.0,26.0,True,3015268.0,5300108,13.265820000000001,0.0125,-15.7795,-47.9297,53.0,Distrito Federal
1105,2020-04-02,SC,Braço do Norte,city,12.0,0.0,19.0,True,33450.0,4202800,35.87444,0.0,-28.2681,-49.1701,42.0,Santa Catarina
1148,2020-04-01,SP,Brodowski,city,1.0,0.0,3.0,True,24939.0,3507803,4.00978,0.0,-20.9845,-47.6572,35.0,São Paulo
1154,2020-04-02,BA,Brumado,city,5.0,0.0,11.0,True,67195.0,2904605,7.4410300000000005,0.0,-14.2021,-41.6696,29.0,Bahia
1166,2020-04-02,SC,Brusque,city,3.0,0.0,6.0,True,134723.0,4202909,2.2267900000000003,0.0,-27.0977,-48.9107,42.0,Santa Catarina
1209,2020-04-02,PB,Cabedelo,city,1.0,0.0,2.0,True,67736.0,2503209,1.47632,0.0,-6.987310000000001,-34.8284,25.0,Paraíba
1225,2020-04-01,SP,Cachoeira Paulista,city,1.0,0.0,2.0,True,33327.0,3508603,3.00057,0.0,-22.6665,-45.0154,35.0,São Paulo
1233,2020-04-02,RS,Cachoeira do Sul,city,1.0,0.0,7.0,True,82201.0,4303004,1.21653,0.0,-30.033,-52.8928,43.0,Rio Grande do Sul
1244,2020-04-02,RS,Cachoeirinha,city,2.0,0.0,3.0,True,130293.0,4303103,1.535,0.0,-29.9472,-51.1016,43.0,Rio Grande do Sul
1247,2020-04-01,ES,Cachoeiro de Itapemirim,city,1.0,0.0,13.0,True,208972.0,3201209,0.47853,0.0,-20.8462,-41.1198,32.0,Espírito Santo
1283,2020-04-01,RN,Caicó,city,0.0,0.0,4.0,True,67952.0,2402006,0.0,0.0,-6.45441,-37.1067,24.0,Rio Grande do Norte
1287,2020-04-01,SP,Caieiras,city,11.0,1.0,6.0,True,101470.0,3509007,10.840639999999999,0.0909,-23.3607,-46.7397,35.0,São Paulo
1299,2020-04-01,SP,Cajamar,city,1.0,0.0,3.0,True,76801.0,3509205,1.30207,0.0,-23.355,-46.8781,35.0,São Paulo
1315,2020-04-02,GO,Caldas Novas,city,0.0,0.0,2.0,True,91162.0,5204508,0.0,0.0,-17.7441,-48.6246,52.0,Goiás
1331,2020-03-30,RS,Camaquã,city,0.0,0.0,7.0,True,66261.0,4303509,0.0,0.0,-30.8489,-51.8043,43.0,Rio Grande do Sul
1338,2020-04-02,PE,Camaragibe,city,2.0,0.0,7.0,True,157828.0,2603454,1.2672,0.0,-8.02351,-34.9782,26.0,Pernambuco
1346,2020-04-02,BA,Camaçari,city,4.0,0.0,14.0,True,299132.0,2905701,1.3372,0.0,-12.6996,-38.3263,29.0,Bahia
1363,2020-04-02,SC,Camboriú,city,7.0,0.0,9.0,True,82989.0,4203204,8.43485,0.0,-27.0241,-48.6503,42.0,Santa Catarina
1375,2020-04-02,PR,Cambé,city,1.0,0.0,2.0,True,106533.0,4103701,0.93868,0.0,-23.2766,-51.2798,41.0,Paraná
1385,2020-04-02,GO,Campestre de Goiás,city,1.0,0.0,2.0,True,3630.0,5204607,27.548209999999997,0.0,-16.7624,-49.695,52.0,Goiás
1388,2020-04-02,PB,Campina Grande,city,2.0,0.0,7.0,True,409731.0,2504009,0.48813,0.0,-7.22196,-35.8731,25.0,Paraíba
1401,2020-04-01,SP,Campinas,city,22.0,1.0,9.0,True,1204073.0,3509502,1.82713,0.0455,-22.9053,-47.0659,35.0,São Paulo
1421,2020-04-02,MG,Campo Belo,city,1.0,0.0,7.0,True,54029.0,3111200,1.85086,0.0,-20.8932,-45.2699,31.0,Minas Gerais
1429,2020-04-02,RS,Campo Bom,city,2.0,0.0,21.0,True,66712.0,4303905,2.99796,0.0,-29.6747,-51.0606,43.0,Rio Grande do Sul
1455,2020-04-02,MS,Campo Grande,city,38.0,0.0,20.0,True,895982.0,5002704,4.24116,0.0,-20.4486,-54.6295,50.0,Mato Grosso do Sul
1476,2020-04-02,PR,Campo Largo,city,5.0,0.0,17.0,True,132002.0,4104204,3.7878199999999995,0.0,-25.4525,-49.529,41.0,Paraná
1498,2020-04-02,PR,Campo Mourão,city,8.0,1.0,9.0,True,94859.0,4104303,8.43357,0.125,-24.0463,-52.378,41.0,Paraná
1515,2020-04-02,MG,Campos Altos,city,1.0,0.0,11.0,True,15461.0,3111507,6.467890000000001,0.0,-19.6914,-46.1725,31.0,Minas Gerais
1536,2020-04-01,RJ,Campos dos Goytacazes,city,1.0,0.0,9.0,True,507548.0,3301009,0.19702999999999998,0.0,-21.7622,-41.3181,33.0,Rio de Janeiro
1550,2020-04-02,BA,Canarana,city,1.0,0.0,9.0,True,26176.0,2906204,3.82029,0.0,-11.6858,-41.7677,29.0,Bahia
1566,2020-04-02,BA,Candeias,city,1.0,0.0,3.0,True,87076.0,2906501,1.14842,0.0,-12.6716,-38.5472,29.0,Bahia
1576,2020-04-02,SC,Canelinha,city,1.0,0.0,9.0,True,12240.0,4203709,8.16993,0.0,-27.2616,-48.7658,42.0,Santa Catarina
1586,2020-04-02,RS,Canguçu,city,1.0,0.0,6.0,True,56045.0,4304507,1.7842799999999999,0.0,-31.396,-52.6783,43.0,Rio Grande do Sul
1597,2020-04-02,RS,Canoas,city,8.0,0.0,13.0,True,346616.0,4304606,2.30803,0.0,-29.9128,-51.1857,43.0,Rio Grande do Sul
1617,2020-04-02,RR,Cantá,city,3.0,0.0,1.0,True,18335.0,1400175,16.36215,0.0,2.60994,-60.6058,14.0,Roraima
1648,2020-04-02,MG,Capitólio,city,1.0,0.0,2.0,True,8632.0,3112802,11.5848,0.0,-20.6164,-46.0493,31.0,Minas Gerais
1659,2020-04-02,RS,Capão da Canoa,city,2.0,0.0,11.0,True,53049.0,4304630,3.7701,0.0,-29.7642,-50.0282,43.0,Rio Grande do Sul
1671,2020-04-02,RS,Capão do Leão,city,1.0,0.0,3.0,True,25354.0,4304663,3.94415,0.0,-31.7565,-52.4889,43.0,Rio Grande do Sul
1683,2020-04-01,SP,Carapicuíba,city,7.0,0.0,11.0,True,400927.0,3510609,1.74595,0.0,-23.5235,-46.8407,35.0,São Paulo
1710,2020-04-02,AM,Careiro da Várzea,city,1.0,0.0,3.0,True,30225.0,1301159,3.3085199999999997,0.0,-3.314,-59.5557,13.0,Amazonas
1713,2020-04-01,ES,Cariacica,city,7.0,0.0,13.0,True,381285.0,3201308,1.8359,0.0,-20.2632,-40.4165,32.0,Espírito Santo
1735,2020-04-02,RS,Carlos Barbosa,city,1.0,0.0,13.0,True,29833.0,4304804,3.3519900000000002,0.0,-29.2969,-51.5028,43.0,Rio Grande do Sul
1755,2020-04-02,MG,Carmo do Cajuru,city,1.0,0.0,7.0,True,22478.0,3114204,4.44879,0.0,-20.1912,-44.7664,31.0,Minas Gerais
1769,2020-04-01,RN,Carnaubais,city,1.0,0.0,3.0,True,10759.0,2402501,9.29454,0.0,-5.34181,-36.8335,24.0,Rio Grande do Norte
1784,2020-04-02,PE,Caruaru,city,1.0,0.0,11.0,True,361118.0,2604106,0.27692,0.0,-8.28455,-35.9699,26.0,Pernambuco
1804,2020-04-02,PR,Cascavel,city,13.0,1.0,11.0,True,328454.0,4104808,3.9579400000000002,0.0769,-24.9573,-53.459,41.0,Paraná
1821,2020-04-02,PA,Castanhal,city,1.0,0.0,8.0,True,200793.0,1502400,0.49803000000000003,0.0,-1.29797,-47.9167,15.0,Pará
1831,2020-04-01,ES,Castelo,city,2.0,0.0,7.0,True,37534.0,3201407,5.3285,0.0,-20.6033,-41.2031,32.0,Espírito Santo
1841,2020-04-02,PR,Castro,city,1.0,0.0,5.0,True,71484.0,4104907,1.39891,0.0,-24.7891,-50.0108,41.0,Paraná
1848,2020-04-02,GO,Catalão,city,1.0,0.0,12.0,True,108823.0,5205109,0.9189200000000001,0.0,-18.1656,-47.944,52.0,Goiás
1871,2020-04-02,BA,Catu,city,0.0,0.0,3.0,True,54704.0,2907509,0.0,0.0,-12.3513,-38.3791,29.0,Bahia
1881,2020-04-01,CE,Caucaia,city,1.0,0.0,5.0,True,361400.0,2303709,0.2767,0.0,-3.72797,-38.6619,23.0,Ceará
1890,2020-04-02,RS,Caxias do Sul,city,13.0,0.0,19.0,True,510906.0,4305108,2.5445,0.0,-29.1629,-51.1792,43.0,Rio Grande do Sul
1915,2020-04-01,RN,Ceará-Mirim,city,1.0,0.0,1.0,True,73497.0,2402600,1.3606,0.0,-5.64323,-35.4247,24.0,Rio Grande do Norte
1941,2020-04-02,RS,Cerro Grande do Sul,city,1.0,0.0,9.0,True,12239.0,4305173,8.1706,0.0,-30.5905,-51.7418,43.0,Rio Grande do Sul
1965,2020-04-02,SC,Chapecó,city,5.0,0.0,14.0,True,220367.0,4204202,2.26894,0.0,-27.1004,-52.6152,42.0,Santa Catarina
1980,2020-04-02,RS,Charqueadas,city,1.0,0.0,13.0,True,40789.0,4305355,2.4516400000000003,0.0,-29.9625,-51.6289,43.0,Rio Grande do Sul
2010,2020-04-02,PR,Cianorte,city,11.0,0.0,20.0,True,82620.0,4105508,13.313970000000001,0.0,-23.6599,-52.6054,41.0,Paraná
2031,2020-04-02,GO,Cidade Ocidental,city,1.0,0.0,2.0,True,71376.0,5205497,1.40103,0.0,-16.0765,-47.9252,52.0,Goiás
2044,2020-04-02,BA,Coaraci,city,1.0,0.0,3.0,True,16993.0,2908002,5.88478,0.0,-14.637,-39.5556,29.0,Bahia
2070,2020-04-02,PR,Colombo,city,0.0,0.0,12.0,True,243726.0,4105805,0.0,0.0,-25.2925,-49.2262,41.0,Paraná
2110,2020-04-02,BA,Conceição do Jacuípe,city,1.0,0.0,12.0,True,33153.0,2908507,3.01632,0.0,-12.3268,-38.7684,29.0,Bahia
2135,2020-04-02,BA,Conde,city,1.0,0.0,10.0,True,25837.0,2908606,3.8704199999999997,0.0,-11.8179,-37.6131,29.0,Bahia
2161,2020-04-02,MG,Contagem,city,9.0,0.0,11.0,True,663855.0,3118601,1.35572,0.0,-19.9321,-44.0539,31.0,Minas Gerais
2172,2020-04-02,PR,Contenda,city,1.0,0.0,5.0,True,18584.0,4106209,5.38097,0.0,-25.6788,-49.535,41.0,Paraná
2196,2020-04-02,PR,Cornélio Procópio,city,1.0,0.0,1.0,True,47845.0,4106407,2.09008,0.0,-23.1829,-50.6498,41.0,Paraná
2205,2020-04-02,MG,Coronel Fabriciano,city,1.0,0.0,16.0,True,109855.0,3119401,0.9102899999999999,0.0,-19.5179,-42.6276,31.0,Minas Gerais
2251,2020-04-01,SP,Cotia,city,21.0,2.0,9.0,True,249210.0,3513009,8.426630000000001,0.0952,-23.6022,-46.919,35.0,São Paulo
2272,2020-04-02,SC,Criciúma,city,23.0,1.0,14.0,True,215186.0,4204608,10.68843,0.0435,-28.6723,-49.3729,42.0,Santa Catarina
2320,2020-04-02,RS,Cruzeiro do Sul,city,1.0,0.0,11.0,True,12348.0,4306205,8.09848,0.0,-29.5148,-51.9928,43.0,Rio Grande do Sul
2337,2020-04-02,MT,Cuiabá,city,25.0,0.0,10.0,True,612547.0,5103403,4.08132,0.0,-15.601,-56.0974,51.0,Mato Grosso
2363,2020-04-02,PR,Curitiba,city,99.0,0.0,20.0,True,1933105.0,4106902,5.12129,0.0,-25.4195,-49.2646,41.0,Paraná
2441,2020-04-01,SP,Diadema,city,8.0,0.0,4.0,True,423884.0,3513801,1.8873099999999998,0.0,-23.6813,-46.6205,35.0,São Paulo
2452,2020-04-02,BA,Dias d'Ávila,city,1.0,0.0,4.0,True,81089.0,2910057,1.2332100000000001,0.0,-12.6187,-38.2926,29.0,Bahia
2470,2020-04-02,MG,Divinópolis,city,9.0,0.0,24.0,True,238230.0,3122306,3.77786,0.0,-20.1446,-44.8912,31.0,Minas Gerais
2501,2020-04-02,RS,Dois Irmãos,city,2.0,0.0,13.0,True,32671.0,4306403,6.12164,0.0,-29.5836,-51.0898,43.0,Rio Grande do Sul
2531,2020-04-02,RS,Dom Pedrito,city,1.0,0.0,9.0,True,38461.0,4306601,2.6000400000000004,0.0,-30.9756,-54.6694,43.0,Rio Grande do Sul
2561,2020-04-02,MS,Dourados,city,4.0,0.0,6.0,True,222949.0,5003702,1.79413,0.0,-22.2231,-54.812,50.0,Mato Grosso do Sul
2581,2020-04-01,RJ,Duque de Caxias,city,6.0,0.0,9.0,True,919596.0,3301702,0.65246,0.0,-22.7858,-43.3049,33.0,Rio de Janeiro
2600,2020-04-02,RS,Eldorado do Sul,city,1.0,0.0,13.0,True,41285.0,4306767,2.42219,0.0,-30.0847,-51.6187,43.0,Rio Grande do Sul
2621,2020-04-01,SP,Embu das Artes,city,8.0,1.0,6.0,True,273726.0,3515004,2.92263,0.125,-23.6437,-46.8579,35.0,São Paulo
2651,2020-04-02,RS,Erechim,city,3.0,0.0,15.0,True,105862.0,4307005,2.8338799999999997,0.0,-27.6364,-52.2697,43.0,Rio Grande do Sul
2697,2020-04-02,RS,Estrela,city,1.0,0.0,13.0,True,34116.0,4307807,2.93118,0.0,-29.5002,-51.9495,43.0,Rio Grande do Sul
2719,2020-04-02,RS,Estância Velha,city,3.0,0.0,12.0,True,50022.0,4307609,5.99736,0.0,-29.6535,-51.1843,43.0,Rio Grande do Sul
2736,2020-04-01,CE,Eusébio,city,1.0,1.0,1.0,True,53618.0,2304285,1.86505,1.0,-3.8925,-38.4559,23.0,Ceará
2738,2020-04-02,MG,Extrema,city,1.0,0.0,5.0,True,36225.0,3125101,2.76052,0.0,-22.854,-46.3178,31.0,Minas Gerais
2753,2020-04-02,RS,Farroupilha,city,1.0,0.0,15.0,True,72331.0,4307906,1.38253,0.0,-29.2227,-51.3419,43.0,Rio Grande do Sul
2770,2020-04-02,PR,Faxinal,city,1.0,0.0,9.0,True,17251.0,4107603,5.7967699999999995,0.0,-24.0077,-51.3227,41.0,Paraná
2783,2020-04-02,PR,Fazenda Rio Grande,city,1.0,0.0,2.0,True,100209.0,4107652,0.9979100000000001,0.0,-25.6624,-49.3073,41.0,Paraná
2792,2020-04-02,BA,Feira de Santana,city,22.0,0.0,26.0,True,614872.0,2910800,3.57798,0.0,-12.2664,-38.9663,29.0,Bahia
2830,2020-04-02,PE,Fernando de Noronha,city,2.0,0.0,7.0,True,3061.0,2605459,65.33811999999999,0.0,-3.8396,-32.4107,26.0,Pernambuco
2839,2020-04-01,SP,Ferraz de Vasconcelos,city,9.0,0.0,13.0,True,194276.0,3515707,4.63258,0.0,-23.5411,-46.371,35.0,São Paulo
2883,2020-04-02,SC,Florianópolis,city,71.0,1.0,22.0,True,500973.0,4205407,14.17242,0.0141,-27.5945,-48.5477,42.0,Santa Catarina
2923,2020-04-01,CE,Fortaleza,city,413.0,6.0,16.0,True,2669342.0,2304400,15.471979999999999,0.0145,-3.71664,-38.5423,23.0,Ceará
2943,2020-04-01,CE,Fortim,city,1.0,0.0,13.0,True,16480.0,2304459,6.06796,0.0,-4.45126,-37.7981,23.0,Ceará
2958,2020-04-02,PR,Foz do Iguaçu,city,12.0,0.0,16.0,True,258532.0,4108304,4.64159,0.0,-25.5427,-54.5827,41.0,Paraná
2981,2020-04-02,PR,Francisco Beltrão,city,1.0,0.0,3.0,True,91093.0,4108403,1.09778,0.0,-26.0817,-53.0535,41.0,Paraná
2991,2020-04-01,SP,Franco da Rocha,city,4.0,0.0,2.0,True,154489.0,3516408,2.58918,0.0,-23.3229,-46.729,35.0,São Paulo
3025,2020-04-02,RS,Garibaldi,city,1.0,0.0,10.0,True,35070.0,4308607,2.85144,0.0,-29.259,-51.5352,43.0,Rio Grande do Sul
3040,2020-04-02,SC,Gaspar,city,2.0,0.0,11.0,True,69639.0,4205902,2.87195,0.0,-26.9336,-48.9534,42.0,Santa Catarina
3080,2020-04-02,PE,Goiana,city,1.0,1.0,7.0,True,79758.0,2606200,1.25379,1.0,-7.5606,-34.9959,26.0,Pernambuco
3093,2020-04-02,GO,Goianésia,city,1.0,0.0,6.0,True,70084.0,5208608,1.42686,0.0,-15.3118,-49.1162,52.0,Goiás
3102,2020-04-02,PR,Goioerê,city,1.0,0.0,2.0,True,28884.0,4108601,3.4621199999999996,0.0,-24.1835,-53.0248,41.0,Paraná
3106,2020-04-02,GO,Goiânia,city,43.0,0.0,21.0,True,1516113.0,5208707,2.8362,0.0,-16.6864,-49.2643,52.0,Goiás
3144,2020-04-02,MG,Governador Valadares,city,2.0,0.0,8.0,True,279885.0,3127701,0.71458,0.0,-18.8545,-41.9555,31.0,Minas Gerais
3161,2020-04-02,SC,Gravatal,city,3.0,0.0,13.0,True,11501.0,4206207,26.08469,0.0,-28.3208,-49.0427,42.0,Santa Catarina
3174,2020-04-02,RS,Gravataí,city,9.0,0.0,9.0,True,281519.0,4309209,3.19694,0.0,-29.9413,-50.9869,43.0,Rio Grande do Sul
3207,2020-04-01,RJ,Guapimirim,city,1.0,0.0,14.0,True,60517.0,3301850,1.6524299999999998,0.0,-22.5347,-42.9895,33.0,Rio de Janeiro
3243,2020-04-01,ES,Guarapari,city,2.0,0.0,5.0,True,124859.0,3202405,1.60181,0.0,-20.6772,-40.5093,32.0,Espírito Santo
3248,2020-04-02,PR,Guarapuava,city,1.0,0.0,7.0,True,181504.0,4109401,0.55095,0.0,-25.3902,-51.4623,41.0,Paraná
3270,2020-04-01,SP,Guarujá,city,1.0,0.0,2.0,True,320459.0,3518701,0.31205,0.0,-23.9888,-46.258,35.0,São Paulo
3273,2020-04-01,SP,Guarulhos,city,25.0,2.0,10.0,True,1379182.0,3518800,1.81267,0.08,-23.4538,-46.5333,35.0,São Paulo
3288,2020-04-02,RS,Guaíba,city,1.0,0.0,1.0,True,98143.0,4309308,1.01892,0.0,-30.1086,-51.3233,43.0,Rio Grande do Sul
3290,2020-04-02,PR,Guaíra,city,2.0,0.0,14.0,True,33119.0,4108809,6.03883,0.0,-24.085,-54.2573,41.0,Paraná
3306,2020-04-02,MG,Guimarânia,city,1.0,0.0,7.0,True,8039.0,3128907,12.43936,0.0,-18.8425,-46.7901,31.0,Minas Gerais
3333,2020-04-02,GO,Hidrolândia,city,0.0,0.0,7.0,True,21706.0,5209705,0.0,0.0,-16.9626,-49.2265,52.0,Goiás
3344,2020-04-01,SP,Hortolândia,city,1.0,0.0,7.0,True,230851.0,3519071,0.43318,0.0,-22.8529,-47.2143,35.0,São Paulo
3363,2020-04-02,PR,Ibaiti,city,1.0,0.0,2.0,True,31364.0,4109708,3.18837,0.0,-23.8478,-50.1932,41.0,Paraná
3423,2020-04-02,PB,Igaracy,city,1.0,0.0,11.0,True,6117.0,2502607,16.34788,0.0,-7.17184,-38.1478,25.0,Paraíba
3465,2020-04-02,BA,Ilhéus,city,8.0,0.0,9.0,True,162327.0,2913606,4.928319999999999,0.0,-14.793,-39.046,29.0,Bahia
3479,2020-04-02,SC,Imbituba,city,5.0,0.0,14.0,True,44853.0,4207304,11.14753,0.0,-28.2284,-48.6659,42.0,Santa Catarina
3498,2020-04-02,MA,Imperatriz,city,1.0,0.0,2.0,True,258682.0,2105302,0.38658000000000003,0.0,-5.51847,-47.4777,21.0,Maranhão
3500,2020-04-02,SC,Importados/Indefinidos,city,8.0,0.0,9.0,True,0.0,0,0.0,0.0,0.0,0.0,0.0,0
3509,2020-04-01,RN,Importados/Indefinidos,city,2.0,0.0,4.0,True,0.0,0,0.0,0.0,0.0,0.0,0.0,0
3513,2020-04-02,PR,Importados/Indefinidos,city,6.0,0.0,12.0,True,0.0,0,0.0,0.0,0.0,0.0,0.0,0
3525,2020-04-01,SP,Importados/Indefinidos,city,59.0,0.0,8.0,True,0.0,0,0.0,0.0,0.0,0.0,0.0,0
3533,2020-04-02,PE,Importados/Indefinidos,city,5.0,1.0,17.0,True,0.0,0,0.0,0.2,0.0,0.0,0.0,0
3550,2020-04-01,RJ,Importados/Indefinidos,city,0.0,0.0,12.0,True,0.0,0,0.0,0.0,0.0,0.0,0.0,0
3562,2020-04-02,GO,Importados/Indefinidos,city,0.0,0.0,14.0,True,0.0,0,0.0,0.0,0.0,0.0,0.0,0
3576,2020-04-02,MG,Importados/Indefinidos,city,3.0,0.0,12.0,True,0.0,0,0.0,0.0,0.0,0.0,0.0,0
3588,2020-04-01,ES,Importados/Indefinidos,city,0.0,0.0,9.0,True,0.0,0,0.0,0.0,0.0,0.0,0.0,0
3597,2020-03-30,CE,Importados/Indefinidos,city,0.0,0.0,12.0,True,0.0,0,0.0,0.0,0.0,0.0,0.0,0
3609,2020-04-02,BA,Importados/Indefinidos,city,0.0,0.0,10.0,True,0.0,0,0.0,0.0,0.0,0.0,0.0,0
3619,2020-03-23,AM,Importados/Indefinidos,city,0.0,0.0,7.0,True,0.0,0,0.0,0.0,0.0,0.0,0.0,0
3626,2020-04-02,AL,Importados/Indefinidos,city,4.0,0.0,5.0,True,0.0,0,0.0,0.0,0.0,0.0,0.0,0
3636,2020-04-02,SC,Indaial,city,1.0,0.0,5.0,True,69425.0,4207502,1.4404,0.0,-26.8992,-49.2354,42.0,Santa Catarina
3641,2020-04-01,SP,Indaiatuba,city,2.0,0.0,1.0,True,251627.0,3520509,0.79483,0.0,-23.0816,-47.2101,35.0,São Paulo
3672,2020-04-02,MG,Ipatinga,city,1.0,0.0,20.0,True,263410.0,3131307,0.37964000000000003,0.0,-19.4703,-42.5476,31.0,Minas Gerais
3698,2020-04-02,BA,Ipiaú,city,1.0,0.0,7.0,True,45873.0,2913903,2.17993,0.0,-14.1226,-39.7353,29.0,Bahia
3722,2020-04-02,PE,Ipubi,city,1.0,0.0,3.0,True,30854.0,2607307,3.24107,0.0,-7.64505,-40.1476,26.0,Pernambuco
3737,2020-04-01,SP,Iracemápolis,city,1.0,0.0,6.0,True,24235.0,3521408,4.12626,0.0,-22.5832,-47.523,35.0,São Paulo
3757,2020-04-02,PR,Iretama,city,1.0,0.0,7.0,True,10169.0,4110805,9.83381,0.0,-24.4253,-52.1012,41.0,Paraná
3781,2020-04-01,RJ,Itaboraí,city,4.0,0.0,6.0,True,240592.0,3301900,1.66257,0.0,-22.7565,-42.8639,33.0,Rio de Janeiro
3787,2020-04-02,BA,Itabuna,city,4.0,0.0,15.0,True,213223.0,2914802,1.8759700000000001,0.0,-14.7876,-39.2781,29.0,Bahia
3806,2020-04-02,AM,Itacoatiara,city,4.0,0.0,5.0,True,101337.0,1301902,3.9472300000000002,0.0,-3.13861,-58.4449,13.0,Amazonas
3815,2020-04-02,BA,Itagibá,city,1.0,0.0,6.0,True,14579.0,2915205,6.85918,0.0,-14.2782,-39.8449,29.0,Bahia
3834,2020-04-01,CE,Itaitinga,city,1.0,0.0,4.0,True,37980.0,2306256,2.6329599999999997,0.0,-3.96577,-38.5298,23.0,Ceará
3838,2020-04-02,PA,Itaituba,city,1.0,0.0,8.0,True,101247.0,1503606,0.9876799999999999,0.0,-4.2667,-55.9926,15.0,Pará
3848,2020-04-02,SC,Itajaí,city,19.0,0.0,13.0,True,219536.0,4208203,8.65462,0.0,-26.9101,-48.6705,42.0,Santa Catarina
3865,2020-04-02,BA,Itajuípe,city,3.0,0.0,3.0,True,20491.0,2915502,14.64057,0.0,-14.6788,-39.3698,29.0,Bahia
3871,2020-04-02,BA,Itamaraju,city,1.0,0.0,5.0,True,64486.0,2915601,1.55072,0.0,-17.0378,-39.5386,29.0,Bahia
3891,2020-04-01,SP,Itanhaém,city,2.0,0.0,1.0,True,101816.0,3522109,1.96433,0.0,-24.1736,-46.788,35.0,São Paulo
3902,2020-04-01,SP,Itapecerica da Serra,city,4.0,0.0,2.0,True,175693.0,3522208,2.2767,0.0,-23.7161,-46.8572,35.0,São Paulo
3906,2020-04-02,SC,Itapema,city,2.0,0.0,8.0,True,65312.0,4208302,3.06222,0.0,-27.0861,-48.61600000000001,42.0,Santa Catarina
3914,2020-04-01,ES,Itapemirim,city,1.0,0.0,5.0,True,34348.0,3202801,2.91138,0.0,-21.0095,-40.8307,32.0,Espírito Santo
3926,2020-04-01,SP,Itapevi,city,6.0,0.0,3.0,True,237700.0,3522505,2.52419,0.0,-23.5488,-46.9327,35.0,São Paulo
3953,2020-04-01,SP,Itaquaquecetuba,city,3.0,0.0,2.0,True,370821.0,3523107,0.80902,0.0,-23.4835,-46.3457,35.0,São Paulo
3993,2020-04-02,BA,Itororó,city,1.0,0.0,5.0,True,20382.0,2917102,4.90629,0.0,-15.11,-40.0684,29.0,Bahia
4003,2020-04-02,GO,Itumbiara,city,2.0,0.0,4.0,True,104742.0,5211503,1.90945,0.0,-18.4093,-49.2158,52.0,Goiás
4008,2020-04-01,SP,Itupeva,city,1.0,0.0,3.0,True,61252.0,3524006,1.6326,0.0,-23.1526,-47.0593,35.0,São Paulo
4025,2020-04-02,RS,Ivoti,city,4.0,1.0,14.0,True,24293.0,4310801,16.46565,0.25,-29.5995,-51.1533,43.0,Rio Grande do Sul
4039,2020-04-02,SC,Içara,city,1.0,0.0,11.0,True,56421.0,4207007,1.7723900000000001,0.0,-28.7132,-49.3087,42.0,Santa Catarina
4051,2020-04-02,PE,Jaboatão dos Guararapes,city,7.0,0.0,15.0,True,702298.0,2607901,0.9967299999999999,0.0,-8.11298,-35.015,26.0,Pernambuco
4102,2020-04-01,SP,Jaguariúna,city,1.0,0.0,9.0,True,57488.0,3524709,1.7394900000000002,0.0,-22.7037,-46.9851,35.0,São Paulo
4112,2020-04-02,SC,Jaguaruna,city,2.0,0.0,13.0,True,20024.0,4208807,9.988010000000001,0.0,-28.6146,-49.0296,42.0,Santa Catarina
4136,2020-04-01,SP,Jandira,city,2.0,0.0,3.0,True,124937.0,3525003,1.60081,0.0,-23.5275,-46.9023,35.0,São Paulo
4158,2020-04-02,SC,Jaraguá do Sul,city,4.0,0.0,14.0,True,177697.0,4208906,2.25102,0.0,-26.4851,-49.0713,42.0,Santa Catarina
4185,2020-04-02,RO,Jaru,city,1.0,0.0,4.0,True,51775.0,1100114,1.93143,0.0,-10.4318,-62.4788,11.0,Rondônia
4190,2020-04-02,GO,Jataí,city,2.0,0.0,15.0,True,100882.0,5211909,1.9825099999999998,0.0,-17.8784,-51.7204,52.0,Goiás
4225,2020-04-02,BA,Jequié,city,1.0,0.0,11.0,True,155966.0,2918001,0.64117,0.0,-13.8509,-40.0877,29.0,Bahia
4244,2020-04-02,RO,Ji-Paraná,city,1.0,0.0,13.0,True,128969.0,1100122,0.7753800000000001,0.0,-10.8777,-61.9322,11.0,Rondônia
4267,2020-04-02,SC,Joaçaba,city,1.0,0.0,1.0,True,30118.0,4209003,3.32027,0.0,-27.1721,-51.5108,42.0,Santa Catarina
4271,2020-04-02,SC,Joinville,city,16.0,1.0,21.0,True,590466.0,4209102,2.70972,0.0625,-26.3045,-48.8487,42.0,Santa Catarina
4311,2020-04-02,PB,João Pessoa,city,23.0,0.0,22.0,True,809015.0,2507507,2.8429599999999997,0.0,-7.11509,-34.8641,25.0,Paraíba
4340,2020-04-02,BA,Juazeiro,city,2.0,0.0,11.0,True,216707.0,2918407,0.92291,0.0,-9.41622,-40.5033,29.0,Bahia
4351,2020-04-01,CE,Juazeiro do Norte,city,1.0,0.0,13.0,True,274207.0,2307304,0.36469,0.0,-7.1962100000000015,-39.3076,23.0,Ceará
4369,2020-04-02,MG,Juiz de Fora,city,30.0,0.0,18.0,True,568873.0,3136702,5.27358,0.0,-21.7595,-43.3398,31.0,Minas Gerais
4390,2020-04-01,SP,Jundiaí,city,5.0,0.0,6.0,True,418962.0,3525904,1.19343,0.0,-23.1852,-46.8974,35.0,São Paulo
4436,2020-04-02,SC,Lages,city,1.0,0.0,12.0,True,157544.0,4209300,0.63474,0.0,-27.815,-50.3259,42.0,Santa Catarina
4469,2020-04-02,MG,Lagoa da Prata,city,5.0,0.0,11.0,True,52165.0,3137205,9.58497,0.0,-20.0237,-45.5401,31.0,Minas Gerais
4498,2020-04-02,SC,Laguna,city,1.0,0.0,10.0,True,45814.0,4209409,2.1827400000000003,0.0,-28.4843,-48.7772,42.0,Santa Catarina
4511,2020-04-02,RS,Lajeado,city,6.0,0.0,13.0,True,84014.0,4311403,7.1416699999999995,0.0,-29.4591,-51.9644,43.0,Rio Grande do Sul
4536,2020-04-02,PR,Lapa,city,1.0,0.0,3.0,True,48163.0,4113205,2.07628,0.0,-25.7671,-49.7168,41.0,Paraná
4550,2020-04-02,BA,Lauro de Freitas,city,12.0,0.0,15.0,True,198440.0,2919207,6.0471699999999995,0.0,-12.8978,-38.321,29.0,Bahia
4566,2020-04-02,MG,Lavras,city,1.0,0.0,2.0,True,103773.0,3138203,0.9636399999999999,0.0,-21.248,-45.0009,31.0,Minas Gerais
4577,2020-04-01,SP,Lençóis Paulista,city,1.0,0.0,2.0,True,68432.0,3526803,1.4613,0.0,-22.6027,-48.8037,35.0,São Paulo
4582,2020-04-02,PR,Leópolis,city,1.0,0.0,1.0,True,3954.0,4113403,25.29084,0.0,-23.0818,-50.7511,41.0,Paraná
4589,2020-04-01,SP,Limeira,city,2.0,0.0,1.0,True,306114.0,3526902,0.65335,0.0,-22.566,-47.397,35.0,São Paulo
4600,2020-04-01,ES,Linhares,city,7.0,0.0,14.0,True,173555.0,3203205,4.0333,0.0,-19.3946,-40.0643,32.0,Espírito Santo
4621,2020-04-02,PR,Londrina,city,27.0,0.0,17.0,True,569733.0,4113700,4.73906,0.0,-23.304,-51.1691,41.0,Paraná
4643,2020-04-01,SP,Louveira,city,1.0,0.0,5.0,True,48885.0,3527306,2.04562,0.0,-23.0856,-46.9484,35.0,São Paulo
4648,2020-04-02,MT,Lucas do Rio Verde,city,1.0,0.0,1.0,True,65534.0,5105259,1.52593,0.0,-13.0588,-55.9042,51.0,Mato Grosso
4668,2020-04-02,GO,Luziânia,city,1.0,1.0,9.0,True,208299.0,5212501,0.48008,1.0,-16.253,-47.95,52.0,Goiás
4681,2020-04-01,RN,Luís Gomes,city,1.0,0.0,3.0,True,10116.0,2407005,9.88533,0.0,-6.405880000000002,-38.3899,24.0,Rio Grande do Norte
4688,2020-04-02,AP,Macapá,city,12.0,0.0,14.0,True,503327.0,1600303,2.38414,0.0,0.034934,-51.0694,16.0,Amapá
4706,2020-04-01,RJ,Macaé,city,1.0,0.0,2.0,True,256672.0,3302403,0.3896,0.0,-22.3768,-41.7848,33.0,Rio de Janeiro
4708,2020-04-01,RN,Macaíba,city,1.0,0.0,4.0,True,80792.0,2407104,1.23775,0.0,-5.85229,-35.3552,24.0,Rio Grande do Norte
4714,2020-04-02,AL,Maceió,city,13.0,1.0,23.0,True,1018948.0,2704302,1.27583,0.0769,-9.66599,-35.735,27.0,Alagoas
4758,2020-04-01,SP,Mairiporã,city,2.0,0.0,5.0,True,100179.0,3528502,1.99643,0.0,-23.3171,-46.5897,35.0,São Paulo
4780,2020-04-02,AM,Manacapuru,city,6.0,0.0,7.0,True,97377.0,1302504,6.16162,0.0,-3.29066,-60.6216,13.0,Amazonas
4789,2020-04-02,AM,Manaus,city,205.0,2.0,17.0,True,2182763.0,1302603,9.39177,0.0098,-3.11866,-60.0212,13.0,Amazonas
4809,2020-04-02,PR,Mandirituba,city,1.0,0.0,1.0,True,26869.0,4114302,3.7217599999999997,0.0,-25.777,-49.3282,41.0,Paraná
4813,2020-04-01,RJ,Mangaratiba,city,1.0,0.0,5.0,True,44468.0,3302601,2.2488099999999998,0.0,-22.9594,-44.0409,33.0,Rio de Janeiro
4819,2020-04-02,MG,Manhuaçu,city,1.0,0.0,4.0,True,90229.0,3139409,1.10829,0.0,-20.2572,-42.028,31.0,Minas Gerais
4837,2020-04-02,PA,Marabá,city,1.0,0.0,11.0,True,279349.0,1504208,0.35798,0.0,-5.38075,-49.1327,15.0,Pará
4851,2020-04-01,CE,Maracanaú,city,1.0,0.0,4.0,True,227886.0,2307650,0.43882,0.0,-3.86699,-38.6259,23.0,Ceará
4863,2020-04-01,CE,Maranguape,city,1.0,0.0,6.0,True,128978.0,2307700,0.77533,0.0,-3.89143,-38.6829,23.0,Ceará
4874,2020-04-02,RS,Marau,city,3.0,0.0,8.0,True,44161.0,4311809,6.79332,0.0,-28.4498,-52.1986,43.0,Rio Grande do Sul
4895,2020-04-02,PR,Marechal Cândido Rondon,city,2.0,0.0,5.0,True,52944.0,4114609,3.7775800000000004,0.0,-24.557,-54.0571,41.0,Paraná
4908,2020-04-02,MG,Mariana,city,3.0,1.0,13.0,True,60724.0,3140001,4.94039,0.3333,-20.3765,-43.414,31.0,Minas Gerais
4925,2020-04-01,RJ,Maricá,city,2.0,0.0,4.0,True,161207.0,3302700,1.24064,0.0,-22.9354,-42.8246,33.0,Rio de Janeiro
4934,2020-04-02,PR,Maringá,city,13.0,2.0,16.0,True,423666.0,4115200,3.06845,0.1538,-23.4205,-51.9333,41.0,Paraná
4953,2020-04-02,PA,Marituba,city,1.0,0.0,3.0,True,131521.0,1504422,0.7603300000000001,0.0,-1.36002,-48.3421,15.0,Pará
4958,2020-04-02,PR,Mariópolis,city,1.0,0.0,6.0,True,6610.0,4115309,15.128589999999999,0.0,-26.355,-52.5532,41.0,Paraná
5000,2020-04-02,PR,Matinhos,city,1.0,0.0,4.0,True,34720.0,4115705,2.8801799999999997,0.0,-25.8237,-48.549,41.0,Paraná
5018,2020-04-01,SP,Matão,city,1.0,0.0,2.0,True,83170.0,3529302,1.20236,0.0,-21.6025,-48.364,35.0,São Paulo
5024,2020-04-01,CE,Mauriti,city,1.0,0.0,9.0,True,47962.0,2308104,2.08498,0.0,-7.385969999999999,-38.7708,23.0,Ceará
5033,2020-04-01,SP,Mauá,city,3.0,0.0,11.0,True,472912.0,3529401,0.63437,0.0,-23.6677,-46.4613,35.0,São Paulo
5051,2020-04-02,BA,Medeiros Neto,city,1.0,0.0,3.0,True,22688.0,2921104,4.40762,0.0,-17.3707,-40.2238,29.0,Bahia
5054,2020-04-02,PR,Medianeira,city,1.0,0.0,5.0,True,46198.0,4115804,2.1646,0.0,-25.2977,-54.0943,41.0,Paraná
5078,2020-04-01,RJ,Miguel Pereira,city,1.0,1.0,13.0,True,25538.0,3302908,3.9157300000000004,1.0,-22.4572,-43.4803,33.0,Rio de Janeiro
5142,2020-04-01,SP,Mogi Guaçu,city,1.0,0.0,2.0,True,151888.0,3530706,0.65838,0.0,-22.3675,-46.9428,35.0,São Paulo
5145,2020-04-01,SP,Mogi das Cruzes,city,11.0,0.0,7.0,True,445842.0,3530607,2.4672400000000003,0.0,-23.5208,-46.1854,35.0,São Paulo
5171,2020-04-01,RN,Monte Alegre,city,1.0,0.0,4.0,True,22451.0,2407807,4.45414,0.0,-6.07063,-35.3253,24.0,Rio Grande do Norte
5239,2020-04-01,RN,Mossoró,city,20.0,1.0,10.0,True,297378.0,2408003,6.72545,0.05,-5.18374,-37.3474,24.0,Rio Grande do Norte
5272,2020-04-02,MG,Muriaé,city,3.0,0.0,5.0,True,108763.0,3143906,2.75829,0.0,-21.13,-42.3693,31.0,Minas Gerais
5297,2020-04-01,RN,Natal,city,48.0,1.0,15.0,True,884122.0,2408102,5.42911,0.0208,-5.79357,-35.1986,24.0,Rio Grande do Norte
5318,2020-04-02,SC,Navegantes,city,4.0,0.0,14.0,True,81475.0,4211306,4.90948,0.0,-26.8943,-48.6546,42.0,Santa Catarina
5356,2020-04-01,RJ,Niterói,city,62.0,1.0,17.0,True,513584.0,3303302,12.07203,0.0161,-22.8832,-43.1034,33.0,Rio de Janeiro
5379,2020-04-02,SE,Nossa Senhora da Glória,city,1.0,0.0,8.0,True,36924.0,2804508,2.70827,0.0,-10.2158,-37.4211,28.0,Sergipe
5400,2020-04-02,MS,Nova Andradina,city,2.0,0.0,3.0,True,54374.0,5006200,3.67823,0.0,-22.238000000000003,-53.3437,50.0,Mato Grosso do Sul
5440,2020-04-01,RJ,Nova Iguaçu,city,7.0,0.0,5.0,True,821128.0,3303500,0.85249,0.0,-22.7556,-43.4603,33.0,Rio de Janeiro
5453,2020-04-02,MG,Nova Lima,city,22.0,0.0,16.0,True,94889.0,3144805,23.18498,0.0,-19.9758,-43.8509,31.0,Minas Gerais
5474,2020-04-02,MT,Nova Monte Verde,city,1.0,0.0,8.0,True,9178.0,5108956,10.89562,0.0,-9.99998,-57.5261,51.0,Mato Grosso
5485,2020-04-01,SP,Nova Odessa,city,1.0,0.0,2.0,True,60174.0,3533403,1.66185,0.0,-22.7832,-47.2941,35.0,São Paulo
5494,2020-04-02,RS,Nova Palma,city,1.0,0.0,8.0,True,6512.0,4313102,15.35627,0.0,-29.471,-53.4689,43.0,Rio Grande do Sul
5522,2020-04-02,BA,Nova Soure,city,1.0,0.0,4.0,True,26947.0,2922904,3.7109900000000002,0.0,-11.2329,-38.4871,29.0,Bahia
5539,2020-04-02,AM,Novo Airão,city,1.0,0.0,4.0,True,19454.0,1303205,5.1403300000000005,0.0,-2.63637,-60.9434,13.0,Amazonas
5550,2020-04-02,RS,Novo Hamburgo,city,4.0,1.0,5.0,True,246748.0,4313409,1.62109,0.25,-29.6875,-51.1328,43.0,Rio Grande do Sul
5594,2020-04-02,PE,Olinda,city,5.0,1.0,12.0,True,392482.0,2609600,1.27394,0.2,-8.01017,-34.8545,26.0,Pernambuco
5630,2020-04-01,SP,Osasco,city,43.0,2.0,8.0,True,698418.0,3534401,6.15677,0.0465,-23.5324,-46.7916,35.0,São Paulo
5640,2020-04-02,RS,Osório,city,1.0,0.0,11.0,True,45994.0,4313508,2.1742,0.0,-29.8881,-50.2667,43.0,Rio Grande do Sul
5704,2020-04-02,PE,Palmares,city,1.0,0.0,4.0,True,63250.0,2610004,1.58103,0.0,-8.68423,-35.589,26.0,Pernambuco
5710,2020-04-02,TO,Palmas,city,9.0,0.0,15.0,True,299127.0,1721000,3.0087599999999997,0.0,-10.24,-48.3558,17.0,Tocantins
5727,2020-04-02,PR,Palmeira,city,1.0,0.0,1.0,True,33877.0,4117701,2.95186,0.0,-25.4257,-50.007,41.0,Paraná
5757,2020-04-02,SC,Papanduva,city,2.0,0.0,6.0,True,19320.0,4212205,10.35197,0.0,-26.3777,-50.1419,42.0,Santa Catarina
5778,2020-04-02,PR,Paranaguá,city,1.0,0.0,1.0,True,154936.0,4118204,0.6454300000000001,0.0,-25.5161,-48.5225,41.0,Paraná
5779,2020-04-02,GO,Paranaiguara,city,1.0,0.0,3.0,True,10057.0,5216304,9.94332,0.0,-18.9141,-50.6539,52.0,Goiás
5787,2020-04-02,PR,Paranavaí,city,3.0,0.0,10.0,True,88374.0,4118402,3.39466,0.0,-23.0816,-52.4617,41.0,Paraná
5807,2020-04-02,PA,Parauapebas,city,1.0,0.0,6.0,True,208273.0,1505536,0.48013999999999996,0.0,-6.06781,-49.9037,15.0,Pará
5814,2020-04-02,RS,Paraí,city,1.0,0.0,10.0,True,7657.0,4314001,13.05995,0.0,-28.5964,-51.7896,43.0,Rio Grande do Sul
5838,2020-04-02,AM,Parintins,city,3.0,1.0,11.0,True,114273.0,1303403,2.62529,0.3333,-2.63741,-56.729,13.0,Amazonas
5854,2020-04-01,RN,Parnamirim,city,11.0,0.0,11.0,True,261469.0,2403251,4.207,0.0,-5.91116,-35.271,24.0,Rio Grande do Norte
5867,2020-04-01,PI,Parnaíba,city,1.0,1.0,4.0,True,153078.0,2207702,0.6532600000000001,1.0,-2.90585,-41.7754,22.0,Piauí
5876,2020-04-01,RN,Passa e Fica,city,1.0,0.0,4.0,True,13277.0,2409100,7.53182,0.0,-6.43018,-35.6442,24.0,Rio Grande do Norte
5886,2020-04-02,RS,Passo Fundo,city,2.0,0.0,8.0,True,203275.0,4314100,0.9838899999999999,0.0,-28.2576,-52.4091,43.0,Rio Grande do Sul
5902,2020-04-02,PR,Pato Branco,city,2.0,0.0,13.0,True,82881.0,4118501,2.4131,0.0,-26.2292,-52.6706,41.0,Paraná
5915,2020-04-02,PB,Patos,city,1.0,1.0,4.0,True,107605.0,2510808,0.92932,1.0,-7.01743,-37.2747,25.0,Paraíba
5921,2020-04-02,MG,Patrocínio,city,3.0,0.0,18.0,True,90757.0,3148103,3.30553,0.0,-18.9379,-46.9934,31.0,Minas Gerais
5962,2020-04-02,SC,Paulo Lopes,city,1.0,0.0,1.0,True,7494.0,4212304,13.34401,0.0,-27.9607,-48.6864,42.0,Santa Catarina
5965,2020-04-01,SP,Paulínia,city,1.0,0.0,3.0,True,109424.0,3536505,0.9138799999999999,0.0,-22.7542,-47.1488,35.0,São Paulo
5972,2020-04-02,PR,Peabiru,city,1.0,0.0,5.0,True,13996.0,4118808,7.1449,0.0,-23.914,-52.3431,41.0,Paraná
6024,2020-04-02,RS,Pelotas,city,2.0,0.0,9.0,True,342405.0,4314407,0.5841,0.0,-31.7649,-52.3371,43.0,Rio Grande do Sul
6039,2020-04-01,SP,Penápolis,city,1.0,0.0,3.0,True,63407.0,3537305,1.57711,0.0,-21.4148,-50.0769,35.0,São Paulo
6059,2020-04-02,SC,Pescaria Brava,city,1.0,0.0,4.0,True,10091.0,4212650,9.90982,0.0,-28.3966,-48.8864,42.0,Santa Catarina
6064,2020-04-02,PE,Petrolina,city,2.0,0.0,11.0,True,349145.0,2611101,0.5728300000000001,0.0,-9.38866,-40.5027,26.0,Pernambuco
6078,2020-04-01,RJ,Petrópolis,city,5.0,1.0,12.0,True,306191.0,3303906,1.63297,0.2,-22.52,-43.1926,33.0,Rio de Janeiro
6124,2020-04-02,PR,Pinhais,city,5.0,0.0,13.0,True,132157.0,4119152,3.78338,0.0,-25.4429,-49.1927,41.0,Paraná
6163,2020-04-01,SP,Piracicaba,city,5.0,0.0,3.0,True,404142.0,3538709,1.23719,0.0,-22.7338,-47.6476,35.0,São Paulo
6169,2020-04-01,SP,Pirajuí,city,1.0,0.0,2.0,True,25492.0,3538907,3.9228,0.0,-21.999,-49.4608,35.0,São Paulo
6187,2020-04-02,RS,Piratini,city,1.0,0.0,8.0,True,20663.0,4314605,4.83957,0.0,-31.4473,-53.0973,43.0,Rio Grande do Sul
6234,2020-04-02,BA,Pojuca,city,1.0,0.0,5.0,True,39519.0,2925204,2.53043,0.0,-12.4303,-38.3374,29.0,Bahia
6242,2020-04-02,SC,Pomerode,city,1.0,0.0,14.0,True,33447.0,4213203,2.9898,0.0,-26.7384,-49.1785,42.0,Santa Catarina
6259,2020-04-02,PR,Ponta Grossa,city,4.0,0.0,13.0,True,351736.0,4119905,1.1372200000000001,0.0,-25.0916,-50.1668,41.0,Paraná
6272,2020-04-02,MS,Ponta Porã,city,1.0,0.0,13.0,True,92526.0,5006606,1.0807799999999999,0.0,-22.5296,-55.7203,50.0,Mato Grosso do Sul
6319,2020-04-02,AC,Porto Acre,city,1.0,0.0,5.0,True,18504.0,1200807,5.40424,0.0,-9.58138,-67.5478,12.0,Acre
6324,2020-04-02,RS,Porto Alegre,city,232.0,3.0,20.0,True,1483771.0,4314902,15.63584,0.0129,-30.0318,-51.2065,43.0,Rio Grande do Sul
6349,2020-04-02,SC,Porto Belo,city,4.0,0.0,11.0,True,21388.0,4213500,18.70208,0.0,-27.1586,-48.5469,42.0,Santa Catarina
6363,2020-04-01,SP,Porto Feliz,city,1.0,0.0,3.0,True,53098.0,3540606,1.8833099999999998,0.0,-23.2093,-47.5251,35.0,São Paulo
6375,2020-04-02,AL,Porto Real do Colégio,city,1.0,0.0,9.0,True,20066.0,2707503,4.98355,0.0,-10.1849,-36.8376,27.0,Alagoas
6386,2020-04-02,BA,Porto Seguro,city,10.0,0.0,18.0,True,148686.0,2925303,6.72558,0.0,-16.4435,-39.0643,29.0,Bahia
6405,2020-04-02,RO,Porto Velho,city,8.0,1.0,12.0,True,529544.0,1100205,1.51073,0.125,-8.760769999999999,-63.8999,11.0,Rondônia
6434,2020-04-02,MG,Pouso Alegre,city,3.0,0.0,2.0,True,150737.0,3152501,1.99022,0.0,-22.2266,-45.9389,31.0,Minas Gerais
6440,2020-04-01,SP,Poá,city,1.0,0.0,6.0,True,117452.0,3539806,0.85141,0.0,-23.5333,-46.3473,35.0,São Paulo
6454,2020-04-02,MG,Poços de Caldas,city,2.0,0.0,13.0,True,167397.0,3151800,1.19476,0.0,-21.78,-46.5692,31.0,Minas Gerais
6472,2020-04-02,BA,Prado,city,3.0,0.0,17.0,True,28174.0,2925501,10.64812,0.0,-17.3364,-39.2227,29.0,Bahia
6492,2020-04-01,SP,Praia Grande,city,1.0,0.0,1.0,True,325073.0,3541000,0.30762,0.0,-24.0084,-46.4121,35.0,São Paulo
6540,2020-04-02,SE,Propriá,city,2.0,0.0,9.0,True,29626.0,2805703,6.7508300000000006,0.0,-10.2138,-36.8442,28.0,Sergipe
6564,2020-04-02,PR,Quatiguá,city,2.0,0.0,6.0,True,7449.0,4120705,26.84924,0.0,-23.5671,-49.916,41.0,Paraná
6572,2020-04-02,PR,Quatro Barras,city,1.0,0.0,3.0,True,23559.0,4120804,4.24466,0.0,-25.3673,-49.0763,41.0,Paraná
6583,2020-04-01,RJ,Queimados,city,1.0,0.0,3.0,True,150319.0,3304144,0.66525,0.0,-22.7102,-43.5518,33.0,Rio de Janeiro
6604,2020-04-01,CE,Quixadá,city,2.0,0.0,5.0,True,87728.0,2311306,2.27977,0.0,-4.9663,-39.0155,23.0,Ceará
6620,2020-04-02,SC,Rancho Queimado,city,2.0,0.0,20.0,True,2878.0,4214300,69.4927,0.0,-27.6727,-49.0191,42.0,Santa Catarina
6645,2020-04-02,PE,Recife,city,74.0,6.0,19.0,True,1645727.0,2611606,4.4964900000000005,0.0811,-8.046660000000001,-34.8771,26.0,Pernambuco
6681,2020-04-01,RJ,Resende,city,2.0,0.0,8.0,True,131341.0,3304201,1.52275,0.0,-22.4705,-44.4509,33.0,Rio de Janeiro
6733,2020-04-01,SP,Ribeirão Pires,city,1.0,0.0,6.0,True,123393.0,3543303,0.81042,0.0,-23.7067,-46.4058,35.0,São Paulo
6739,2020-04-01,SP,Ribeirão Preto,city,8.0,1.0,5.0,True,703293.0,3543402,1.13751,0.125,-21.1699,-47.8099,35.0,São Paulo
6745,2020-04-02,MG,Ribeirão das Neves,city,2.0,0.0,1.0,True,334858.0,3154606,0.59727,0.0,-19.7621,-44.0844,31.0,Minas Gerais
6759,2020-04-01,RJ,Rio Bonito,city,2.0,1.0,3.0,True,60201.0,3304300,3.3222,0.5,-22.7181,-42.6276,33.0,Rio de Janeiro
6763,2020-04-02,AC,Rio Branco,city,36.0,0.0,17.0,True,407319.0,1200401,8.838280000000001,0.0,-9.97499,-67.8243,12.0,Acre
6782,2020-04-02,PR,Rio Branco do Sul,city,1.0,0.0,4.0,True,32397.0,4122206,3.08671,0.0,-25.1892,-49.3115,41.0,Paraná
6789,2020-04-01,SP,Rio Claro,city,1.0,0.0,6.0,True,206424.0,3543907,0.48444,0.0,-22.3984,-47.5546,35.0,São Paulo
6800,2020-04-02,RS,Rio Grande,city,2.0,0.0,11.0,True,211005.0,4315602,0.94784,0.0,-32.0349,-52.1071,43.0,Rio Grande do Sul
6817,2020-04-02,PR,Rio Negro,city,1.0,0.0,7.0,True,34170.0,4122305,2.92654,0.0,-26.095,-49.7982,41.0,Paraná
6839,2020-04-02,GO,Rio Verde,city,7.0,0.0,21.0,True,235647.0,5218805,2.97054,0.0,-17.7923,-50.9192,52.0,Goiás
6860,2020-04-02,MS,Rio Verde de Mato Grosso,city,1.0,0.0,7.0,True,19746.0,5007406,5.0643199999999995,0.0,-18.9249,-54.8434,50.0,Mato Grosso do Sul
6871,2020-04-01,RJ,Rio das Ostras,city,3.0,1.0,4.0,True,150674.0,3304524,1.99105,0.3333,-22.5174,-41.9475,33.0,Rio de Janeiro
6877,2020-04-01,RJ,Rio de Janeiro,city,697.0,20.0,19.0,True,6718903.0,3304557,10.37372,0.0287,-22.9129,-43.2003,33.0,Rio de Janeiro
6921,2020-04-02,RS,Rolante,city,1.0,0.0,8.0,True,21349.0,4316006,4.68406,0.0,-29.6462,-50.5819,43.0,Rio Grande do Sul
6939,2020-04-02,MT,Rondonópolis,city,5.0,0.0,4.0,True,232491.0,5107602,2.15062,0.0,-16.4673,-54.6372,51.0,Mato Grosso
6963,2020-04-02,MG,Sabará,city,4.0,0.0,7.0,True,136344.0,3156700,2.93376,0.0,-19.884,-43.8263,31.0,Minas Gerais
7001,2020-04-01,SP,Salto de Pirapora,city,1.0,0.0,2.0,True,45422.0,3545308,2.20158,0.0,-23.6474,-47.5743,35.0,São Paulo
7007,2020-04-02,BA,Salvador,city,167.0,3.0,20.0,True,2872347.0,2927408,5.81406,0.018,-12.9718,-38.5011,29.0,Bahia
7038,2020-04-02,RS,Sant'Ana do Livramento,city,5.0,0.0,14.0,True,77027.0,4317103,6.491230000000001,0.0,-30.8773,-55.5392,43.0,Rio Grande do Sul
7076,2020-04-02,BA,Santa Cruz Cabrália,city,2.0,0.0,1.0,True,27778.0,2927705,7.19994,0.0,-16.2825,-39.0295,29.0,Bahia
7115,2020-04-01,SP,Santa Isabel,city,1.0,0.0,2.0,True,57386.0,3546801,1.74259,0.0,-23.3172,-46.2237,35.0,São Paulo
7128,2020-04-02,MG,Santa Luzia,city,1.0,0.0,5.0,True,219134.0,3157807,0.45633999999999997,0.0,-19.7548,-43.8497,31.0,Minas Gerais
7143,2020-04-02,RS,Santa Maria,city,2.0,0.0,12.0,True,282123.0,4316907,0.70891,0.0,-29.6868,-53.8149,43.0,Rio Grande do Sul
7172,2020-04-01,CE,Santa Quitéria,city,1.0,1.0,2.0,True,43703.0,2312205,2.28817,1.0,-4.32608,-40.1523,23.0,Ceará
7191,2020-04-02,RS,Santa Rosa,city,1.0,0.0,7.0,True,73254.0,4317202,1.36511,0.0,-27.8702,-54.4796,43.0,Rio Grande do Sul
7208,2020-04-01,ES,Santa Teresa,city,1.0,0.0,10.0,True,23590.0,3204609,4.23908,0.0,-19.9363,-40.5979,32.0,Espírito Santo
7239,2020-04-01,SP,Santana de Parnaíba,city,18.0,0.0,18.0,True,139447.0,3547304,12.90813,0.0,-23.4439,-46.9178,35.0,São Paulo
7270,2020-04-02,MG,Santana do Paraíso,city,1.0,0.0,1.0,True,34663.0,3158953,2.88492,0.0,-19.3661,-42.5446,31.0,Minas Gerais
7278,2020-04-02,PA,Santarém,city,4.0,1.0,2.0,True,304589.0,1506807,1.31325,0.25,-2.4384900000000003,-54.6996,15.0,Pará
7281,2020-04-02,RS,Santiago,city,1.0,0.0,11.0,True,49425.0,4317400,2.02327,0.0,-29.1897,-54.8666,43.0,Rio Grande do Sul
7299,2020-04-01,SP,Santo André,city,51.0,2.0,11.0,True,718773.0,3547809,7.09543,0.0392,-23.6737,-46.5432,35.0,São Paulo
7313,2020-04-02,RS,Santo Antônio da Patrulha,city,1.0,0.0,12.0,True,42894.0,4317608,2.33133,0.0,-29.8268,-50.5175,43.0,Rio Grande do Sul
7339,2020-04-02,AM,Santo Antônio do Içá,city,4.0,0.0,8.0,True,21602.0,1303700,18.5168,0.0,-3.09544,-67.9463,13.0,Amazonas
7351,2020-04-02,MG,Santo Antônio do Monte,city,2.0,0.0,1.0,True,28243.0,3160405,7.0814,0.0,-20.085,-45.2947,31.0,Minas Gerais
7371,2020-04-01,SP,Santos,city,23.0,0.0,3.0,True,433311.0,3548500,5.30797,0.0,-23.9535,-46.335,35.0,São Paulo
7378,2020-04-02,RS,Sapiranga,city,1.0,0.0,16.0,True,81734.0,4319901,1.22348,0.0,-29.6349,-51.0064,43.0,Rio Grande do Sul
7397,2020-04-02,RS,Sapucaia do Sul,city,1.0,0.0,1.0,True,141075.0,4320008,0.7088399999999999,0.0,-29.8276,-51.145,43.0,Rio Grande do Sul
7450,2020-04-02,RS,Serafina Corrêa,city,3.0,0.0,13.0,True,17502.0,4320404,17.1409,0.0,-28.7126,-51.9352,43.0,Rio Grande do Sul
7466,2020-04-01,RJ,Seropédica,city,1.0,0.0,4.0,True,82312.0,3305554,1.21489,0.0,-22.7526,-43.7155,33.0,Rio de Janeiro
7470,2020-04-01,ES,Serra,city,22.0,0.0,10.0,True,517510.0,3205002,4.25113,0.0,-20.121,-40.3074,32.0,Espírito Santo
7499,2020-04-02,MG,Serra do Salitre,city,1.0,0.0,5.0,True,11582.0,3166808,8.634089999999999,0.0,-19.1083,-46.6961,31.0,Minas Gerais
7527,2020-04-02,MG,Sete Lagoas,city,2.0,0.0,16.0,True,239639.0,3167202,0.8345899999999999,0.0,-19.4569,-44.2413,31.0,Minas Gerais
7549,2020-04-02,SC,Siderópolis,city,2.0,0.0,8.0,True,14007.0,4217600,14.278570000000002,0.0,-28.5955,-49.4314,42.0,Santa Catarina
7557,2020-04-02,MS,Sidrolândia,city,1.0,0.0,15.0,True,57665.0,5007901,1.73415,0.0,-20.9302,-54.9692,50.0,Mato Grosso do Sul
7580,2020-04-02,GO,Silvânia,city,1.0,0.0,9.0,True,20695.0,5220603,4.83209,0.0,-16.66,-48.6083,52.0,Goiás
7597,2020-04-02,MT,Sinop,city,3.0,0.0,1.0,True,142996.0,5107909,2.09796,0.0,-11.8604,-55.5091,51.0,Mato Grosso
7604,2020-04-01,CE,Sobral,city,5.0,0.0,14.0,True,208935.0,2312908,2.39309,0.0,-3.689130000000001,-40.3482,23.0,Ceará
7630,2020-04-01,SP,Sorocaba,city,3.0,1.0,4.0,True,679378.0,3552205,0.44158000000000003,0.3333,-23.4969,-47.4451,35.0,São Paulo
7637,2020-04-02,PB,Sousa,city,1.0,0.0,7.0,True,69444.0,2516201,1.44001,0.0,-6.75148,-38.2311,25.0,Paraíba
7656,2020-04-01,SP,Suzano,city,4.0,1.0,8.0,True,297637.0,3552502,1.34392,0.25,-23.5448,-46.3112,35.0,São Paulo
7681,2020-04-01,SP,São Bernardo do Campo,city,52.0,2.0,11.0,True,838936.0,3548708,6.19833,0.0385,-23.6914,-46.5646,35.0,São Paulo
7698,2020-04-01,SP,São Caetano do Sul,city,32.0,1.0,11.0,True,161127.0,3548807,19.86011,0.0312,-23.6229,-46.5548,35.0,São Paulo
7716,2020-04-02,BA,São Domingos,city,1.0,0.0,9.0,True,9058.0,2928950,11.03996,0.0,-11.4649,-39.5268,29.0,Bahia
7735,2020-04-02,RS,São Domingos do Sul,city,1.0,0.0,3.0,True,3074.0,4318051,32.5309,0.0,-28.5312,-51.886,43.0,Rio Grande do Sul
7761,2020-04-02,SC,São Francisco do Sul,city,1.0,0.0,6.0,True,52721.0,4216206,1.89678,0.0,-26.2579,-48.6344,42.0,Santa Catarina
7776,2020-04-02,RS,São Gabriel,city,1.0,0.0,1.0,True,62105.0,4318309,1.61018,0.0,-30.3337,-54.3217,43.0,Rio Grande do Sul
7784,2020-04-01,RJ,São Gonçalo,city,11.0,1.0,10.0,True,1084839.0,3304904,1.0139799999999999,0.0909,-22.8268,-43.0634,33.0,Rio de Janeiro
7796,2020-04-01,RN,São Gonçalo do Amarante,city,1.0,0.0,4.0,True,102400.0,2412005,0.97656,0.0,-5.79068,-35.3257,24.0,Rio Grande do Norte
7818,2020-04-02,SC,São José,city,12.0,1.0,15.0,True,246586.0,4216602,4.86646,0.0833,-27.6136,-48.6366,42.0,Santa Catarina
7848,2020-04-01,RN,São José de Mipibu,city,1.0,0.0,4.0,True,43899.0,2412203,2.2779599999999998,0.0,-6.0773,-35.2417,24.0,Rio Grande do Norte
7865,2020-04-01,PI,São José do Divino,city,1.0,1.0,5.0,True,5346.0,2210052,18.70557,1.0,-3.81411,-41.8308,22.0,Piauí
7885,2020-04-01,SP,São José do Rio Pardo,city,1.0,0.0,2.0,True,54946.0,3549706,1.81997,0.0,-21.5953,-46.8873,35.0,São Paulo
7887,2020-04-01,SP,São José do Rio Preto,city,7.0,0.0,9.0,True,460671.0,3549805,1.51952,0.0,-20.8113,-49.3758,35.0,São Paulo
7903,2020-04-01,SP,São José dos Campos,city,12.0,0.0,8.0,True,721944.0,3549904,1.66218,0.0,-23.1896,-45.8841,35.0,São Paulo
7912,2020-04-02,PR,São José dos Pinhais,city,4.0,0.0,5.0,True,323340.0,4125506,1.23709,0.0,-25.5313,-49.2031,41.0,Paraná
7943,2020-04-01,RJ,São João de Meriti,city,2.0,0.0,3.0,True,472406.0,3305109,0.42336,0.0,-22.8058,-43.3729,33.0,Rio de Janeiro
7947,2020-04-02,MG,São João del Rei,city,3.0,0.0,8.0,True,90082.0,3162500,3.3303,0.0,-21.1311,-44.2526,31.0,Minas Gerais
7981,2020-04-02,RS,São Leopoldo,city,8.0,0.0,13.0,True,236835.0,4318705,3.37788,0.0,-29.7545,-51.1498,43.0,Rio Grande do Sul
7995,2020-04-02,PE,São Lourenço da Mata,city,3.0,0.0,6.0,True,113230.0,2613701,2.64947,0.0,-8.006839999999999,-35.0124,26.0,Pernambuco
8002,2020-04-02,SC,São Lourenço do Oeste,city,1.0,0.0,7.0,True,24076.0,4216909,4.15351,0.0,-26.3557,-52.8498,42.0,Santa Catarina
8011,2020-04-02,SC,São Ludgero,city,2.0,0.0,9.0,True,13410.0,4217006,14.91424,0.0,-28.3144,-49.1806,42.0,Santa Catarina
8025,2020-04-02,MA,São Luís,city,78.0,1.0,14.0,True,1101884.0,2111300,7.07879,0.0128,-2.53874,-44.2825,21.0,Maranhão
8044,2020-04-02,PR,São Manoel do Paraná,city,1.0,0.0,1.0,True,2160.0,4125555,46.2963,0.0,-23.3941,-52.6454,41.0,Paraná
8050,2020-04-01,ES,São Mateus,city,3.0,0.0,4.0,True,130611.0,3204906,2.2969,0.0,-18.7214,-39.8579,32.0,Espírito Santo
8079,2020-04-01,SP,São Paulo,city,2418.0,144.0,27.0,True,12252023.0,3550308,19.73552,0.0596,-23.5329,-46.6395,35.0,São Paulo
8110,2020-04-01,SP,São Pedro,city,1.0,0.0,3.0,True,35653.0,3550407,2.80481,0.0,-22.5483,-47.9096,35.0,São Paulo
8113,2020-04-01,RJ,São Pedro da Aldeia,city,1.0,0.0,2.0,True,104476.0,3305208,0.95716,0.0,-22.8429,-42.1026,33.0,Rio de Janeiro
8120,2020-04-02,SC,São Pedro de Alcântara,city,1.0,0.0,9.0,True,5823.0,4217253,17.17328,0.0,-27.5665,-48.8048,42.0,Santa Catarina
8147,2020-04-01,ES,São Roque do Canaã,city,1.0,0.0,6.0,True,12415.0,3204955,8.05477,0.0,-19.7411,-40.6526,32.0,Espírito Santo
8155,2020-04-01,SP,São Sebastião,city,3.0,1.0,6.0,True,88980.0,3550704,3.37154,0.3333,-23.7951,-45.4143,35.0,São Paulo
8169,2020-04-02,RS,São Sebastião do Caí,city,2.0,0.0,2.0,True,25685.0,4319505,7.78665,0.0,-29.5885,-51.3749,43.0,Rio Grande do Sul
8194,2020-04-01,SP,São Vicente,city,2.0,0.0,2.0,True,365798.0,3551009,0.54675,0.0,-23.9574,-46.3883,35.0,São Paulo
8215,2020-04-01,SP,Taboão da Serra,city,22.0,1.0,6.0,True,289664.0,3552809,7.59501,0.0455,-23.6019,-46.7526,35.0,São Paulo
8247,2020-04-02,MT,Tangará da Serra,city,2.0,0.0,2.0,True,103750.0,5107958,1.9277099999999998,0.0,-14.6229,-57.4933,51.0,Mato Grosso
8270,2020-04-02,RS,Taquara,city,1.0,0.0,15.0,True,57466.0,4321204,1.74016,0.0,-29.6505,-50.7753,43.0,Rio Grande do Sul
8289,2020-04-02,RS,Taquari,city,1.0,0.0,4.0,True,26862.0,4321303,3.7227300000000003,0.0,-29.7943,-51.8653,43.0,Rio Grande do Sul
8306,2020-04-01,SP,Tatuí,city,1.0,0.0,5.0,True,121766.0,3554003,0.82125,0.0,-23.3487,-47.8461,35.0,São Paulo
8311,2020-04-01,SP,Taubaté,city,1.0,0.0,8.0,True,314924.0,3554102,0.31754,0.0,-23.0104,-45.5593,35.0,São Paulo
8325,2020-04-02,BA,Teixeira de Freitas,city,2.0,0.0,10.0,True,160487.0,2931350,1.24621,0.0,-17.5399,-39.74,29.0,Bahia
8340,2020-04-02,PR,Telêmaco Borba,city,3.0,0.0,10.0,True,78974.0,4127106,3.79872,0.0,-24.3245,-50.6176,41.0,Paraná
8360,2020-04-01,PI,Teresina,city,17.0,2.0,12.0,True,864845.0,2211001,1.96567,0.1176,-5.09194,-42.8034,22.0,Piauí
8373,2020-04-01,RJ,Teresópolis,city,1.0,0.0,3.0,True,182594.0,3305802,0.54766,0.0,-22.4165,-42.9752,33.0,Rio de Janeiro
8379,2020-04-02,PR,Terra Boa,city,1.0,0.0,1.0,True,17094.0,4127205,5.85001,0.0,-23.7683,-52.447,41.0,Paraná
8383,2020-04-02,PR,Terra Rica,city,1.0,0.0,5.0,True,16789.0,4127304,5.9562800000000005,0.0,-22.7111,-52.6188,41.0,Paraná
8396,2020-04-01,CE,Tianguá,city,1.0,1.0,1.0,True,75946.0,2313401,1.31673,1.0,-3.72965,-40.9923,23.0,Ceará
8398,2020-04-01,RN,Tibau,city,1.0,0.0,4.0,True,4106.0,2411056,24.3546,0.0,-4.83729,-37.2554,24.0,Rio Grande do Norte
8405,2020-04-02,SC,Tijucas,city,1.0,0.0,10.0,True,38407.0,4218004,2.6036900000000003,0.0,-27.2354,-48.6322,42.0,Santa Catarina
8420,2020-04-02,SC,Timbé do Sul,city,1.0,0.0,8.0,True,5348.0,4218103,18.69858,0.0,-28.8287,-49.842,42.0,Santa Catarina
8431,2020-04-02,MG,Timóteo,city,1.0,0.0,11.0,True,89842.0,3168705,1.11307,0.0,-19.5811,-42.6471,31.0,Minas Gerais
8451,2020-04-02,MG,Toledo,city,1.0,0.0,1.0,True,6258.0,3169109,15.97955,0.0,-22.7421,-46.3728,31.0,Minas Gerais
8457,2020-04-02,AM,Tonantins,city,3.0,0.0,1.0,True,18755.0,1304237,15.995729999999998,0.0,-2.8658200000000003,-67.7919,13.0,Amazonas
8462,2020-04-02,RS,Torres,city,7.0,0.0,13.0,True,38732.0,4321501,18.07291,0.0,-29.3334,-49.7333,43.0,Rio Grande do Sul
8484,2020-04-02,RS,Tramandaí,city,1.0,0.0,1.0,True,51715.0,4321600,1.93367,0.0,-29.9841,-50.1322,43.0,Rio Grande do Sul
8492,2020-04-02,GO,Trindade,city,1.0,0.0,2.0,True,127599.0,5221403,0.78371,0.0,-16.6517,-49.4927,52.0,Goiás
8510,2020-04-02,MS,Três Lagoas,city,1.0,0.0,2.0,True,121388.0,5008305,0.8238,0.0,-20.7849,-51.7007,50.0,Mato Grosso do Sul
8519,2020-04-02,SC,Tubarão,city,14.0,0.0,16.0,True,105686.0,4218707,13.246789999999999,0.0,-28.4713,-49.0144,42.0,Santa Catarina
8538,2020-04-02,PA,Tucuruí,city,1.0,0.0,3.0,True,113659.0,1508100,0.87982,0.0,-3.7657,-49.6773,15.0,Pará
8584,2020-04-02,MG,Uberaba,city,4.0,0.0,13.0,True,333783.0,3170107,1.19838,0.0,-19.7472,-47.9381,31.0,Minas Gerais
8597,2020-04-02,MG,Uberlândia,city,22.0,0.0,16.0,True,691305.0,3170206,3.1823900000000003,0.0,-18.9141,-48.2749,31.0,Minas Gerais
8630,2020-04-02,PR,Umuarama,city,2.0,0.0,13.0,True,111557.0,4128104,1.7928099999999998,0.0,-23.7656,-53.3201,41.0,Paraná
8644,2020-04-02,MG,Unaí,city,1.0,0.0,4.0,True,84378.0,3170404,1.1851399999999999,0.0,-16.3592,-46.9022,31.0,Minas Gerais
8653,2020-04-02,PR,União da Vitória,city,1.0,0.0,7.0,True,57517.0,4128203,1.73862,0.0,-26.2273,-51.0873,41.0,Paraná
8679,2020-04-02,RS,Uruguaiana,city,1.0,0.0,1.0,True,126970.0,4322400,0.78759,0.0,-29.7614,-57.0853,43.0,Rio Grande do Sul
8684,2020-04-02,SC,Urussanga,city,1.0,0.0,6.0,True,21268.0,4219002,4.7019,0.0,-28.518,-49.3238,42.0,Santa Catarina
8705,2020-04-01,RJ,Valença,city,1.0,0.0,8.0,True,76523.0,3306107,1.3068,0.0,-22.2445,-43.7129,33.0,Rio de Janeiro
8714,2020-04-01,SP,Valinhos,city,1.0,0.0,6.0,True,129193.0,3556206,0.77404,0.0,-22.9698,-46.9974,35.0,São Paulo
8721,2020-04-02,GO,Valparaíso de Goiás,city,4.0,0.0,10.0,True,168468.0,5221858,2.37434,0.0,-16.0651,-47.9757,52.0,Goiás
8739,2020-04-01,SP,Vargem Grande Paulista,city,2.0,1.0,7.0,True,52597.0,3556453,3.8025,0.5,-23.5993,-47.022,35.0,São Paulo
8778,2020-04-02,PR,Verê,city,1.0,0.0,3.0,True,7257.0,4128609,13.7798,0.0,-25.8772,-52.9051,41.0,Paraná
8785,2020-04-02,RS,Viamão,city,4.0,0.0,11.0,True,255224.0,4323002,1.56725,0.0,-30.0819,-51.0194,43.0,Rio Grande do Sul
8797,2020-04-01,ES,Viana,city,1.0,0.0,2.0,True,78239.0,3205101,1.27813,0.0,-20.3825,-40.4933,32.0,Espírito Santo
8815,2020-04-02,RS,Vila Maria,city,1.0,0.0,1.0,True,4358.0,4323408,22.94631,0.0,-28.5359,-52.1486,43.0,Rio Grande do Sul
8823,2020-04-01,ES,Vila Velha,city,36.0,0.0,14.0,True,493838.0,3205200,7.289839999999999,0.0,-20.3417,-40.2875,32.0,Espírito Santo
8838,2020-04-01,SP,Vinhedo,city,1.0,0.0,2.0,True,78728.0,3556701,1.2702,0.0,-23.0302,-46.9833,35.0,São Paulo
8856,2020-04-01,ES,Vitória,city,34.0,0.0,14.0,True,362097.0,3205309,9.38975,0.0,-20.3155,-40.3128,32.0,Espírito Santo
8871,2020-04-02,BA,Vitória da Conquista,city,1.0,0.0,2.0,True,341597.0,2933307,0.29274,0.0,-14.8615,-40.8442,29.0,Bahia
8883,2020-04-01,RJ,Volta Redonda,city,12.0,1.0,9.0,True,273012.0,3306305,4.39541,0.0833,-22.5202,-44.0996,33.0,Rio de Janeiro
8892,2020-04-01,SP,Votorantim,city,1.0,0.0,2.0,True,122480.0,3557006,0.8164600000000001,0.0,-23.5446,-47.4388,35.0,São Paulo
8894,2020-04-01,SP,Votuporanga,city,1.0,0.0,2.0,True,94547.0,3557105,1.05768,0.0,-20.4237,-49.9781,35.0,São Paulo
8901,2020-04-02,MT,Várzea Grande,city,4.0,0.0,9.0,True,284971.0,5108402,1.40365,0.0,-15.6458,-56.1322,51.0,Mato Grosso
8958,2020-04-02,GO,Águas Lindas de Goiás,city,1.0,0.0,6.0,True,212440.0,5200258,0.47071999999999997,0.0,-15.7617,-48.2816,52.0,Goiás
8980,2020-04-02,RO,0,state,10.0,1.0,13.0,True,1777225.0,11,0.56267,0.1,0.0,0.0,0.0,0
8993,2020-04-02,AC,0,state,45.0,0.0,17.0,True,881935.0,12,5.1024199999999995,0.0,0.0,0.0,0.0,0
9010,2020-04-02,AM,0,state,229.0,3.0,17.0,True,4144597.0,13,5.52527,0.0131,0.0,0.0,0.0,0
9027,2020-04-02,RR,0,state,26.0,0.0,13.0,True,605761.0,14,4.29212,0.0,0.0,0.0,0.0,0
9040,2020-04-02,PA,0,state,45.0,1.0,16.0,True,8602865.0,15,0.52308,0.0222,0.0,0.0,0.0,0
9056,2020-04-02,AP,0,state,12.0,0.0,14.0,True,845731.0,16,1.41889,0.0,0.0,0.0,0.0,0
9070,2020-04-02,TO,0,state,12.0,0.0,14.0,True,1572866.0,17,0.76294,0.0,0.0,0.0,0.0,0
9084,2020-04-02,MA,0,state,80.0,1.0,14.0,True,7075181.0,21,1.13071,0.0125,0.0,0.0,0.0,0
9098,2020-04-01,PI,0,state,19.0,4.0,12.0,True,3273227.0,22,0.5804699999999999,0.2105,0.0,0.0,0.0,0
9110,2020-04-01,CE,0,state,445.0,9.0,17.0,True,9132078.0,23,4.87293,0.0202,0.0,0.0,0.0,0
9127,2020-04-01,RN,0,state,92.0,2.0,15.0,True,3506853.0,24,2.62343,0.0217,0.0,0.0,0.0,0
9142,2020-04-02,PB,0,state,29.0,1.0,22.0,True,4018127.0,25,0.72173,0.0345,0.0,0.0,0.0,0
9164,2020-04-02,PE,0,state,106.0,9.0,22.0,True,9557071.0,26,1.10913,0.0849,0.0,0.0,0.0,0
9186,2020-04-02,AL,0,state,18.0,1.0,23.0,True,3337357.0,27,0.53935,0.0556,0.0,0.0,0.0,0
9209,2020-04-02,SE,0,state,23.0,2.0,12.0,True,2298696.0,28,1.0005700000000002,0.087,0.0,0.0,0.0,0
9221,2020-04-02,BA,0,state,267.0,3.0,26.0,True,14873064.0,29,1.79519,0.0112,0.0,0.0,0.0,0
9247,2020-04-02,MG,0,state,370.0,4.0,25.0,True,21168791.0,31,1.7478599999999997,0.0108,0.0,0.0,0.0,0
9272,2020-04-01,ES,0,state,120.0,0.0,28.0,True,4018650.0,32,2.98608,0.0,0.0,0.0,0.0,0
9300,2020-04-01,RJ,0,state,832.0,28.0,20.0,True,17264943.0,33,4.81901,0.0337,0.0,0.0,0.0,0
9320,2020-04-01,SP,0,state,2981.0,164.0,34.0,True,45919049.0,35,6.49186,0.055,0.0,0.0,0.0,0
9354,2020-04-02,PR,0,state,258.0,4.0,20.0,True,11433957.0,41,2.25644,0.0155,0.0,0.0,0.0,0
9374,2020-04-02,SC,0,state,281.0,5.0,22.0,True,7164788.0,42,3.92196,0.0178,0.0,0.0,0.0,0
9396,2020-04-02,RS,0,state,386.0,5.0,21.0,True,11377239.0,43,3.3927400000000003,0.013,0.0,0.0,0.0,0
9417,2020-04-02,MS,0,state,53.0,1.0,20.0,True,2778986.0,50,1.90717,0.0189,0.0,0.0,0.0,0
9437,2020-04-02,MT,0,state,41.0,0.0,11.0,True,3484466.0,51,1.17665,0.0,0.0,0.0,0.0,0
9448,2020-04-02,GO,0,state,73.0,1.0,22.0,True,7018354.0,52,1.04013,0.0137,0.0,0.0,0.0,0
9470,2020-04-02,DF,0,state,400.0,5.0,26.0,True,3015268.0,53,13.265820000000001,0.0125,0.0,0.0,0.0,0
